[
    {
        "id": 1523,
        "station_name": "Los Angeles Convention Center",
        "street_address": "1201 S Figueroa St",
        "city": "Los Angeles",
        "state": "CA",
        "zip": "90015",
        "latitude": 34.040539,
        "longitude": -118.271387,
        "owner_type_code": "P",
        "ev_connector_types": [
            "J1772"
        ],
        "ev_pricing": "Free; parking fee",
        "geocode_status": "GPS",
        "access_code": "public"
    },
    {
        "id": 1556,
        "station_name": "LADWP - Sylmar West",
        "street_address": "13201 Sepulveda Blvd",
        "city": "Sylmar",
        "state": "CA",
        "zip": "91342",
        "latitude": 34.30309,
        "longitude": -118.480505,
        "owner_type_code": "LG",
        "ev_connector_types": [
            "J1772"
        ],
        "ev_pricing": "Free",
        "geocode_status": "200-8",
        "access_code": "private"
    },
    {
        "id": 1573,
        "station_name": "LADWP - Fairfax Center",
        "street_address": "2311 S Fairfax Ave",
        "city": "Los Angeles",
        "state": "CA",
        "zip": "90016",
        "latitude": 34.036777,
        "longitude": -118.368841,
        "owner_type_code": "LG",
        "ev_connector_types": [
            "J1772"
        ],
        "ev_pricing": "Free",
        "geocode_status": "200-8",
        "access_code": "private"
    },
    {
        "id": 1583,
        "station_name": "California Air Resources Board",
        "street_address": "9530 Telstar Ave",
        "city": "El Monte",
        "state": "CA",
        "zip": "91731",
        "latitude": 34.06872,
        "longitude": -118.064,
        "owner_type_code": "SG",
        "ev_connector_types": [
            "J1772"
        ],
        "ev_pricing": "Free",
        "geocode_status": "GPS",
        "access_code": "public"
    },
    {
        "id": 6355,
        "station_name": "Scripps Green Hospital",
        "street_address": "10666 N Torrey Pines Rd",
        "city": "La Jolla",
        "state": "CA",
        "zip": "92037",
        "latitude": 32.89947,
        "longitude": -117.243,
        "owner_type_code": "P",
        "ev_connector_types": [
            "J1772"
        ],
        "ev_pricing": "Free; parking fee",
        "geocode_status": "GPS",
        "access_code": "public"
    },
    {
        "id": 6425,
        "station_name": "Galleria at Tyler",
        "street_address": "1299 Galleria at Tyler",
        "city": "Riverside",
        "state": "CA",
        "zip": "92503",
        "latitude": 33.909914,
        "longitude": -117.459053,
        "owner_type_code": "P",
        "ev_connector_types": [
            "J1772"
        ],
        "ev_pricing": "Free",
        "geocode_status": "GPS",
        "access_code": "public"
    },
    {
        "id": 6505,
        "station_name": "City of Pasadena - Holly Street Garage",
        "street_address": "150 E Holly St",
        "city": "Pasadena",
        "state": "CA",
        "zip": "91103",
        "latitude": 34.14762,
        "longitude": -118.147111,
        "owner_type_code": "LG",
        "ev_connector_types": [
            "J1772"
        ],
        "ev_pricing": "Free",
        "geocode_status": "200-8",
        "access_code": "public"
    },
    {
        "id": 6506,
        "station_name": "City of Pasadena - De Lacey Garage",
        "street_address": "45 De Lacey Ave",
        "city": "Pasadena",
        "state": "CA",
        "zip": "91105",
        "latitude": 34.145138,
        "longitude": -118.152655,
        "owner_type_code": "LG",
        "ev_connector_types": [
            "J1772"
        ],
        "ev_pricing": "Free; parking fee",
        "geocode_status": "GPS",
        "access_code": "public"
    },
    {
        "id": 6507,
        "station_name": "City of Pasadena - Schoolhouse Garage",
        "street_address": "33 E Green St",
        "city": "Pasadena",
        "state": "CA",
        "zip": "91105",
        "latitude": 34.145119,
        "longitude": -118.150133,
        "owner_type_code": "LG",
        "ev_connector_types": [
            "J1772"
        ],
        "ev_pricing": "$1 for the first two hours, $2 each additional hour; parking fee",
        "geocode_status": "GPS",
        "access_code": "public"
    },
    {
        "id": 7172,
        "station_name": "Hyatt Regency Long Beach",
        "street_address": "200 S Pine Ave",
        "city": "Long Beach",
        "state": "CA",
        "zip": "90802",
        "latitude": 33.7637,
        "longitude": -118.192,
        "owner_type_code": "P",
        "ev_connector_types": [
            "J1772"
        ],
        "ev_pricing": "Free",
        "geocode_status": "GPS",
        "access_code": "public"
    },
    {
        "id": 7184,
        "station_name": "Los Angeles International Airport (LAX) - Lot 6",
        "street_address": "1 World Way",
        "city": "Los Angeles",
        "state": "CA",
        "zip": "90045",
        "latitude": 33.94325,
        "longitude": -118.403342,
        "owner_type_code": "LG",
        "ev_connector_types": [
            "J1772"
        ],
        "ev_pricing": "$2 service fee + $0.45 per kWh",
        "geocode_status": "GPS",
        "access_code": "public"
    },
    {
        "id": 7194,
        "station_name": "Ontario Airport Hotel and Conference Center",
        "street_address": "700 N Haven Ave",
        "city": "Ontario",
        "state": "CA",
        "zip": "91764",
        "latitude": 34.07122,
        "longitude": -117.575,
        "owner_type_code": "P",
        "ev_connector_types": [
            "J1772"
        ],
        "ev_pricing": "Free",
        "geocode_status": "GPS",
        "access_code": "public"
    },
    {
        "id": 7195,
        "station_name": "Courtyard Marriott - Oxnard Ventura",
        "street_address": "600 E Esplanade Dr",
        "city": "Oxnard",
        "state": "CA",
        "zip": "93030",
        "latitude": 34.228315,
        "longitude": -119.170865,
        "owner_type_code": "P",
        "ev_connector_types": [
            "J1772"
        ],
        "ev_pricing": "Free",
        "geocode_status": "GPS",
        "access_code": "public"
    },
    {
        "id": 7196,
        "station_name": "Hilton - Palm Springs",
        "street_address": "400 E Tahquitz Canyon Way",
        "city": "Palm Springs",
        "state": "CA",
        "zip": "92262",
        "latitude": 33.824004,
        "longitude": -116.543589,
        "owner_type_code": "P",
        "ev_connector_types": [
            "J1772"
        ],
        "ev_pricing": "Free",
        "geocode_status": "GPS",
        "access_code": "public"
    },
    {
        "id": 7206,
        "station_name": "Inland Empire Foods",
        "street_address": "5425 Wilson St",
        "city": "Riverside",
        "state": "CA",
        "zip": "92509",
        "latitude": 34.0189,
        "longitude": -117.38,
        "owner_type_code": "P",
        "ev_connector_types": [
            "J1772"
        ],
        "ev_pricing": "Free",
        "geocode_status": "GPS",
        "access_code": "public"
    },
    {
        "id": 7212,
        "station_name": "Sacramento International Airport - Daily A Lot",
        "street_address": "Lindbergh Dr",
        "city": "Sacramento",
        "state": "CA",
        "zip": "95837",
        "latitude": 38.69005,
        "longitude": -121.58889,
        "owner_type_code": "P",
        "ev_connector_types": [
            "J1772"
        ],
        "ev_pricing": "$12 parking fee",
        "geocode_status": "GPS",
        "access_code": "public"
    },
    {
        "id": 7229,
        "station_name": "City of Santa Monica - Airport",
        "street_address": "3223 Donald Douglas Loop",
        "city": "Santa Monica",
        "state": "CA",
        "zip": "90405",
        "latitude": 34.017081,
        "longitude": -118.44704,
        "owner_type_code": "LG",
        "ev_connector_types": [
            "J1772"
        ],
        "ev_pricing": "Free",
        "geocode_status": "GPS",
        "access_code": "public"
    },
    {
        "id": 7230,
        "station_name": "City of Santa Monica - Pier",
        "street_address": "200 Santa Monica Pier",
        "city": "Santa Monica",
        "state": "CA",
        "zip": "90405",
        "latitude": 34.010021,
        "longitude": -118.49583,
        "owner_type_code": "LG",
        "ev_connector_types": [
            "J1772"
        ],
        "ev_pricing": "Free",
        "geocode_status": "200-9",
        "access_code": "public"
    },
    {
        "id": 7242,
        "station_name": "Universal City Hilton",
        "street_address": "333 Universal Terrace Pkwy",
        "city": "Universal City",
        "state": "CA",
        "zip": "91608",
        "latitude": 34.138717,
        "longitude": -118.35904,
        "owner_type_code": "P",
        "ev_connector_types": [
            "NEMA520"
        ],
        "ev_pricing": "Free",
        "geocode_status": "200-8",
        "access_code": "public"
    },
    {
        "id": 7250,
        "station_name": "Office Max - Home Depot",
        "street_address": "7075 Firestone Blvd",
        "city": "Downey",
        "state": "CA",
        "zip": "90241",
        "latitude": 33.94756,
        "longitude": -118.153806,
        "owner_type_code": "T",
        "ev_connector_types": [
            "J1772"
        ],
        "ev_pricing": "Free",
        "geocode_status": "200-8",
        "access_code": "public"
    },
    {
        "id": 7286,
        "station_name": "Arden Fair Mall",
        "street_address": "1689 Arden Way",
        "city": "Sacramento",
        "state": "CA",
        "zip": "95815",
        "latitude": 38.599693,
        "longitude": -121.427045,
        "owner_type_code": "P",
        "ev_connector_types": [
            "J1772"
        ],
        "ev_pricing": "Free",
        "geocode_status": "200-8",
        "access_code": "public"
    },
    {
        "id": 21358,
        "station_name": "Palace Hotel",
        "street_address": "2 New Montgomery St",
        "city": "San Francisco",
        "state": "CA",
        "zip": "94105",
        "latitude": 37.78881,
        "longitude": -122.401,
        "owner_type_code": "P",
        "ev_connector_types": [
            "J1772"
        ],
        "ev_pricing": "$7 per session",
        "geocode_status": "GPS",
        "access_code": "public"
    },
    {
        "id": 21395,
        "station_name": "California State University - Northridge",
        "street_address": "18111 Nordhoff St",
        "city": "Northridge",
        "state": "CA",
        "zip": "91330",
        "latitude": 34.248959,
        "longitude": -118.523887,
        "owner_type_code": "P",
        "ev_connector_types": [
            "J1772"
        ],
        "ev_pricing": "Free",
        "geocode_status": "GPS",
        "access_code": "public"
    },
    {
        "id": 21396,
        "station_name": "California State University - Northridge",
        "street_address": "18111 Nordhoff St",
        "city": "Northridge",
        "state": "CA",
        "zip": "91330",
        "latitude": 34.241687,
        "longitude": -118.528543,
        "owner_type_code": "P",
        "ev_connector_types": [
            "J1772"
        ],
        "ev_pricing": "Free; parking is $8 per day.",
        "geocode_status": "GPS",
        "access_code": "public"
    },
    {
        "id": 21397,
        "station_name": "California State University - Northridge",
        "street_address": "18111 Nordhoff St",
        "city": "Northridge",
        "state": "CA",
        "zip": "91330",
        "latitude": 34.236853,
        "longitude": -118.532588,
        "owner_type_code": "P",
        "ev_connector_types": [
            "J1772"
        ],
        "ev_pricing": "Free",
        "geocode_status": "GPS",
        "access_code": "public"
    },
    {
        "id": 21402,
        "station_name": "Los Angeles Harbor Department Headquarters",
        "street_address": "425 S Palos Verdes St",
        "city": "San Pedro",
        "state": "CA",
        "zip": "90731",
        "latitude": 33.740758,
        "longitude": -118.28192,
        "owner_type_code": "P",
        "ev_connector_types": [
            "J1772"
        ],
        "ev_pricing": "Free",
        "geocode_status": "200-9",
        "access_code": "public"
    },
    {
        "id": 21419,
        "station_name": "Getty Center",
        "street_address": "1200 Getty Center Dr",
        "city": "Los Angeles",
        "state": "CA",
        "zip": "90049",
        "latitude": 34.077588,
        "longitude": -118.474585,
        "owner_type_code": "P",
        "ev_connector_types": [
            "J1772",
            "NEMA520"
        ],
        "ev_pricing": "Free; parking fee",
        "geocode_status": "200-9",
        "access_code": "public"
    },
    {
        "id": 21450,
        "station_name": "LA County DPR Arboretum",
        "street_address": "301 N Baldwin Ave",
        "city": "Arcadia",
        "state": "CA",
        "zip": "91007",
        "latitude": 34.145528,
        "longitude": -118.050548,
        "owner_type_code": "P",
        "ev_connector_types": [
            "J1772"
        ],
        "ev_pricing": "$0.45 per kWh from 4pm-9pm; $0.30 per kWh all other times",
        "geocode_status": "GPS",
        "access_code": "public"
    },
    {
        "id": 21498,
        "station_name": "City of Glendora - City Hall",
        "street_address": "114 S Vista Bonita Ave",
        "city": "Glendora",
        "state": "CA",
        "zip": "91741",
        "latitude": 34.13556,
        "longitude": -117.864,
        "owner_type_code": "LG",
        "ev_connector_types": [
            "J1772"
        ],
        "ev_pricing": "Free",
        "geocode_status": "GPS",
        "access_code": "public"
    },
    {
        "id": 21525,
        "station_name": "Helms Bakery Building",
        "street_address": "8800 Venice Blvd",
        "city": "Los Angeles",
        "state": "CA",
        "zip": "90034",
        "latitude": 34.029971,
        "longitude": -118.385231,
        "owner_type_code": "P",
        "ev_connector_types": [
            "J1772"
        ],
        "ev_pricing": "$1.35 per hour for first two hours, $3 per hour thereafter",
        "geocode_status": "200-9",
        "access_code": "public"
    },
    {
        "id": 21559,
        "station_name": "California State University - Channel Islands",
        "street_address": "1 University Dr",
        "city": "Camarillo",
        "state": "CA",
        "zip": "93012",
        "latitude": 34.16657601660278,
        "longitude": -119.0458546627045,
        "owner_type_code": "P",
        "ev_connector_types": [
            "J1772"
        ],
        "ev_pricing": "Free; $6 for parking day pass for non-permit holders",
        "geocode_status": "GPS",
        "access_code": "public"
    },
    {
        "id": 21565,
        "station_name": "Home Depot",
        "street_address": "2745 Teller Rd",
        "city": "Newbury Park",
        "state": "CA",
        "zip": "91320",
        "latitude": 34.192178,
        "longitude": -118.934793,
        "owner_type_code": "P",
        "ev_connector_types": [
            "J1772",
            "NEMA515"
        ],
        "ev_pricing": "Free",
        "geocode_status": "GPS",
        "access_code": "public"
    },
    {
        "id": 21566,
        "station_name": "Lake Casitas Municipal Water District - Recreational Area",
        "street_address": "Casitas Pass Rd & Baldwin Rd",
        "city": "Oak View",
        "state": "CA",
        "zip": "93022",
        "latitude": 34.418322,
        "longitude": -119.3368,
        "owner_type_code": "P",
        "ev_connector_types": [
            "J1772"
        ],
        "ev_pricing": "$20 parking fee",
        "geocode_status": "GPS",
        "access_code": "public"
    },
    {
        "id": 21569,
        "station_name": "San Dimas Park & Ride",
        "street_address": "205 S San Dimas Ave",
        "city": "San Dimas",
        "state": "CA",
        "zip": "91773",
        "latitude": 34.105275,
        "longitude": -117.809208,
        "owner_type_code": "P",
        "ev_connector_types": [
            "J1772"
        ],
        "ev_pricing": "Free",
        "geocode_status": "GPS",
        "access_code": "public"
    },
    {
        "id": 21594,
        "station_name": "City of Pasadena - El Molino Lot",
        "street_address": "100 N El Molino Ave",
        "city": "Pasadena",
        "state": "CA",
        "zip": "91101",
        "latitude": 34.147709,
        "longitude": -118.136621,
        "owner_type_code": "LG",
        "ev_connector_types": [
            "J1772"
        ],
        "ev_pricing": "Free; parking fee",
        "geocode_status": "GPS",
        "access_code": "public"
    },
    {
        "id": 21607,
        "station_name": "Ventura County Air Pollution Control District",
        "street_address": "669 County Square Dr",
        "city": "Ventura",
        "state": "CA",
        "zip": "93003",
        "latitude": 34.268756,
        "longitude": -119.2154,
        "owner_type_code": "LG",
        "ev_connector_types": [
            "J1772"
        ],
        "ev_pricing": "Free",
        "geocode_status": "GPS",
        "access_code": "public"
    },
    {
        "id": 21608,
        "station_name": "Pacific View Mall",
        "street_address": "3295 E Main St",
        "city": "Ventura",
        "state": "CA",
        "zip": "93003",
        "latitude": 34.268,
        "longitude": -119.2492,
        "owner_type_code": "P",
        "ev_connector_types": [
            "J1772"
        ],
        "ev_pricing": "Free",
        "geocode_status": "GPS",
        "access_code": "public"
    },
    {
        "id": 21618,
        "station_name": "LA County DPW Imperial",
        "street_address": "5525 E Imperial Hwy",
        "city": "South Gate",
        "state": "CA",
        "zip": "90280",
        "latitude": 33.930663,
        "longitude": -118.175758,
        "owner_type_code": "LG",
        "ev_connector_types": [
            "J1772"
        ],
        "ev_pricing": "$0.45 per kWh from 4pm-9pm; $0.30 per kWh all other times",
        "geocode_status": "200-8",
        "access_code": "private"
    },
    {
        "id": 21673,
        "station_name": "University of California - Davis Extension - Lot 80",
        "street_address": "1441 Research Park Dr",
        "city": "Davis",
        "state": "CA",
        "zip": "95616",
        "latitude": 38.539336,
        "longitude": -121.732405,
        "owner_type_code": "SG",
        "ev_connector_types": [
            "J1772",
            "NEMA520"
        ],
        "ev_pricing": "Parking fee",
        "geocode_status": "GPS",
        "access_code": "public"
    },
    {
        "id": 25491,
        "station_name": "Fair Oaks - Orangevale - Community Library",
        "street_address": "11601 Fair Oaks Blvd",
        "city": "Fair Oaks",
        "state": "CA",
        "zip": "95628",
        "latitude": 38.66292,
        "longitude": -121.2634,
        "owner_type_code": "LG",
        "ev_connector_types": [
            "J1772"
        ],
        "ev_pricing": "Free",
        "geocode_status": "GPS",
        "access_code": "public"
    },
    {
        "id": 25494,
        "station_name": "Sutter Galleria Mall - University of California - Davis Extension",
        "street_address": "2901 K St",
        "city": "Sacramento",
        "state": "CA",
        "zip": "95816",
        "latitude": 38.57277,
        "longitude": -121.467902,
        "owner_type_code": "P",
        "ev_connector_types": [
            "J1772",
            "NEMA520"
        ],
        "ev_pricing": "Free",
        "geocode_status": "200-9",
        "access_code": "public"
    },
    {
        "id": 25497,
        "station_name": "North Highlands Library",
        "street_address": "4235 Antelope Rd",
        "city": "Antelope",
        "state": "CA",
        "zip": "95843",
        "latitude": 38.7042,
        "longitude": -121.365,
        "owner_type_code": "LG",
        "ev_connector_types": [
            "J1772"
        ],
        "ev_pricing": "Free",
        "geocode_status": "GPS",
        "access_code": "public"
    },
    {
        "id": 25502,
        "station_name": "City of Sacramento - Belle Cooledge Library",
        "street_address": "5600 S Land Park Dr",
        "city": "Sacramento",
        "state": "CA",
        "zip": "95822",
        "latitude": 38.524403,
        "longitude": -121.5112,
        "owner_type_code": "LG",
        "ev_connector_types": [
            "J1772"
        ],
        "ev_pricing": "Free",
        "geocode_status": "GPS",
        "access_code": "public"
    },
    {
        "id": 25507,
        "station_name": "Mosquito Road Park and Ride",
        "street_address": "Mosquito Rd & Clay St",
        "city": "Placerville",
        "state": "CA",
        "zip": "95667",
        "latitude": 38.73323,
        "longitude": -120.78962,
        "owner_type_code": "LG",
        "ev_connector_types": [
            "J1772"
        ],
        "ev_pricing": "Free",
        "geocode_status": "GPS",
        "access_code": "public"
    },
    {
        "id": 25511,
        "station_name": "City of Vacaville - Cultural Center",
        "street_address": "1000 Ulatis Dr",
        "city": "Vacaville",
        "state": "CA",
        "zip": "95687",
        "latitude": 38.356027,
        "longitude": -121.9628,
        "owner_type_code": "LG",
        "ev_connector_types": [
            "J1772"
        ],
        "ev_pricing": "Free",
        "geocode_status": "GPS",
        "access_code": "public"
    },
    {
        "id": 25514,
        "station_name": "Stars Recreation Center",
        "street_address": "155 Browns Valley Pkwy",
        "city": "Vacaville",
        "state": "CA",
        "zip": "95688",
        "latitude": 38.36557,
        "longitude": -121.967,
        "owner_type_code": "LG",
        "ev_connector_types": [
            "J1772"
        ],
        "ev_pricing": "Free",
        "geocode_status": "GPS",
        "access_code": "public"
    },
    {
        "id": 25515,
        "station_name": "City of Vacaville - Regional Transport Center",
        "street_address": "190 Hickory Ln",
        "city": "Vacaville",
        "state": "CA",
        "zip": "95688",
        "latitude": 38.35172,
        "longitude": -121.987,
        "owner_type_code": "LG",
        "ev_connector_types": [
            "J1772"
        ],
        "ev_pricing": "Free",
        "geocode_status": "GPS",
        "access_code": "public"
    },
    {
        "id": 25516,
        "station_name": "Office of Housing & Redevelopment",
        "street_address": "40 Eldridge Ave",
        "city": "Vacaville",
        "state": "CA",
        "zip": "95688",
        "latitude": 38.356907,
        "longitude": -122.001886,
        "owner_type_code": "LG",
        "ev_connector_types": [
            "J1772"
        ],
        "ev_pricing": "Free",
        "geocode_status": "200-9",
        "access_code": "public"
    },
    {
        "id": 25517,
        "station_name": "KUIC Radio - Parking Lot",
        "street_address": "500 Catherine St",
        "city": "Vacaville",
        "state": "CA",
        "zip": "95688",
        "latitude": 38.355867,
        "longitude": -121.9862,
        "owner_type_code": "LG",
        "ev_connector_types": [
            "J1772"
        ],
        "ev_pricing": "Free",
        "geocode_status": "GPS",
        "access_code": "public"
    },
    {
        "id": 25518,
        "station_name": "City of Vacaville - City Hall",
        "street_address": "650 Merchant St",
        "city": "Vacaville",
        "state": "CA",
        "zip": "95688",
        "latitude": 38.351758,
        "longitude": -121.994475,
        "owner_type_code": "LG",
        "ev_connector_types": [
            "J1772"
        ],
        "ev_pricing": "Free",
        "geocode_status": "200-9",
        "access_code": "public"
    },
    {
        "id": 25519,
        "station_name": "Citrus Heights City Hall",
        "street_address": "6360 Fountain Square Dr",
        "city": "Citrus Heights",
        "state": "CA",
        "zip": "95621",
        "latitude": 38.682605,
        "longitude": -121.297614,
        "owner_type_code": "LG",
        "ev_connector_types": [
            "J1772"
        ],
        "ev_pricing": "Free",
        "geocode_status": "GPS",
        "access_code": "public"
    },
    {
        "id": 25520,
        "station_name": "Pitt School Plaza",
        "street_address": "1440 Ary Ln",
        "city": "Dixon",
        "state": "CA",
        "zip": "95620",
        "latitude": 38.457369,
        "longitude": -121.842567,
        "owner_type_code": "LG",
        "ev_connector_types": [
            "NEMA520"
        ],
        "ev_pricing": "Free",
        "geocode_status": "200-9",
        "access_code": "public"
    },
    {
        "id": 25522,
        "station_name": "El Dorado County Government Center",
        "street_address": "2850 Fairlane Ct",
        "city": "Placerville",
        "state": "CA",
        "zip": "95667",
        "latitude": 38.72799,
        "longitude": -120.828,
        "owner_type_code": "LG",
        "ev_connector_types": [
            "J1772"
        ],
        "ev_pricing": "Free",
        "geocode_status": "GPS",
        "access_code": "public"
    },
    {
        "id": 25523,
        "station_name": "El Dorado Transit Park & Ride",
        "street_address": "4640 Post St",
        "city": "El Dorado Hills",
        "state": "CA",
        "zip": "95762",
        "latitude": 38.6476,
        "longitude": -121.067,
        "owner_type_code": "LG",
        "ev_connector_types": [
            "J1772"
        ],
        "ev_pricing": "Free",
        "geocode_status": "GPS",
        "access_code": "public"
    },
    {
        "id": 25527,
        "station_name": "CVS Pharmacy",
        "street_address": "8455 Auburn-Folsom Rd",
        "city": "Granite Bay",
        "state": "CA",
        "zip": "95746",
        "latitude": 38.74453,
        "longitude": -121.17,
        "owner_type_code": "P",
        "ev_connector_types": [
            "J1772"
        ],
        "ev_pricing": "Free",
        "geocode_status": "GPS",
        "access_code": "public"
    },
    {
        "id": 25610,
        "station_name": "Carmichael Library",
        "street_address": "5605 Marconi Ave",
        "city": "Carmichael",
        "state": "CA",
        "zip": "95608",
        "latitude": 38.618066,
        "longitude": -121.334337,
        "owner_type_code": "P",
        "ev_connector_types": [
            "J1772"
        ],
        "ev_pricing": "Free",
        "geocode_status": "GPS",
        "access_code": "public"
    },
    {
        "id": 27302,
        "station_name": "Rio Vista City Hall",
        "street_address": "1 Main St",
        "city": "Rio Vista",
        "state": "CA",
        "zip": "94571",
        "latitude": 38.15485,
        "longitude": -121.69,
        "owner_type_code": "LG",
        "ev_connector_types": [
            "J1772"
        ],
        "ev_pricing": "Free",
        "geocode_status": "GPS",
        "access_code": "public"
    },
    {
        "id": 27328,
        "station_name": "Fairfield City Hall",
        "street_address": "1000 Webster St",
        "city": "Fairfield",
        "state": "CA",
        "zip": "94533",
        "latitude": 38.25281,
        "longitude": -122.044229,
        "owner_type_code": "LG",
        "ev_connector_types": [
            "J1772"
        ],
        "ev_pricing": "Free",
        "geocode_status": "200-8",
        "access_code": "public"
    },
    {
        "id": 27329,
        "station_name": "Solano Community College",
        "street_address": "4000 Suisun Valley Rd",
        "city": "Fairfield",
        "state": "CA",
        "zip": "94534",
        "latitude": 38.23723,
        "longitude": -122.123,
        "owner_type_code": "LG",
        "ev_connector_types": [
            "J1772"
        ],
        "ev_pricing": "Free",
        "geocode_status": "GPS",
        "access_code": "public"
    },
    {
        "id": 28007,
        "station_name": "Los Angeles International Airport (LAX) - Lot 1",
        "street_address": "1 World Way",
        "city": "Los Angeles",
        "state": "CA",
        "zip": "90045",
        "latitude": 33.944761,
        "longitude": -118.399767,
        "owner_type_code": "LG",
        "ev_connector_types": [
            "J1772"
        ],
        "ev_pricing": "$2 service fee + $0.45 per kWh",
        "geocode_status": "GPS",
        "access_code": "public"
    },
    {
        "id": 29862,
        "station_name": "City of Vacaville - Police Headquarters",
        "street_address": "660 Merchant St",
        "city": "Vacaville",
        "state": "CA",
        "zip": "95688",
        "latitude": 38.35109,
        "longitude": -121.993654,
        "owner_type_code": "LG",
        "ev_connector_types": [
            "J1772"
        ],
        "ev_pricing": "Free",
        "geocode_status": "200-8",
        "access_code": "private"
    },
    {
        "id": 33544,
        "station_name": "City of Ukiah - Public Parking Lot",
        "street_address": "N Oak St & W Standley St",
        "city": "Ukiah",
        "state": "CA",
        "zip": "95482",
        "latitude": 39.15,
        "longitude": -123.2091,
        "owner_type_code": "LG",
        "ev_connector_types": [
            "J1772"
        ],
        "ev_pricing": "Free",
        "geocode_status": "GPS",
        "access_code": "public"
    },
    {
        "id": 33545,
        "station_name": "Nut Tree Village",
        "street_address": "1651 E Monte Vista Ave",
        "city": "Vacaville",
        "state": "CA",
        "zip": "95688",
        "latitude": 38.368755,
        "longitude": -121.961192,
        "owner_type_code": "P",
        "ev_connector_types": [
            "J1772",
            "NEMA515"
        ],
        "ev_pricing": "Free",
        "geocode_status": "200-9",
        "access_code": "public"
    },
    {
        "id": 33555,
        "station_name": "4th and G Plaza Public Parking Garage",
        "street_address": "817 4th St",
        "city": "Davis",
        "state": "CA",
        "zip": "95616",
        "latitude": 38.54643,
        "longitude": -121.7388,
        "owner_type_code": "P",
        "ev_connector_types": [
            "J1772"
        ],
        "ev_pricing": "Free",
        "geocode_status": "GPS",
        "access_code": "public"
    },
    {
        "id": 33556,
        "station_name": "Davis Amtrak Station",
        "street_address": "840 2nd St",
        "city": "Davis",
        "state": "CA",
        "zip": "95616",
        "latitude": 38.5443,
        "longitude": -121.738,
        "owner_type_code": "P",
        "ev_connector_types": [
            "J1772"
        ],
        "ev_pricing": "Free",
        "geocode_status": "GPS",
        "access_code": "public"
    },
    {
        "id": 33557,
        "station_name": "University of California - Davis - Quad Parking Structure",
        "street_address": "6 Howard Way",
        "city": "Davis",
        "state": "CA",
        "zip": "95616",
        "latitude": 38.544538,
        "longitude": -121.749713,
        "owner_type_code": "P",
        "ev_connector_types": [
            "J1772",
            "NEMA520"
        ],
        "ev_pricing": "Parking fee",
        "geocode_status": "GPS",
        "access_code": "public"
    },
    {
        "id": 33558,
        "station_name": "University Covenant Church",
        "street_address": "315 Mace Blvd",
        "city": "Davis",
        "state": "CA",
        "zip": "95618",
        "latitude": 38.55755,
        "longitude": -121.6947,
        "owner_type_code": "P",
        "ev_connector_types": [
            "J1772"
        ],
        "ev_pricing": "Free",
        "geocode_status": "GPS",
        "access_code": "public"
    },
    {
        "id": 33564,
        "station_name": "Lakewood Center Mall",
        "street_address": "4500 Silva St",
        "city": "Lakewood",
        "state": "CA",
        "zip": "90712",
        "latitude": 33.84788,
        "longitude": -118.13889,
        "owner_type_code": "P",
        "ev_connector_types": [
            "J1772"
        ],
        "ev_pricing": "Free",
        "geocode_status": "GPS",
        "access_code": "public"
    },
    {
        "id": 33690,
        "station_name": "Golden Gate Ferry Terminal",
        "street_address": "101 E Sir Francis Drake Blvd",
        "city": "Larkspur",
        "state": "CA",
        "zip": "94939",
        "latitude": 37.94495,
        "longitude": -122.5096,
        "owner_type_code": "P",
        "ev_connector_types": [
            "J1772"
        ],
        "ev_pricing": "Free",
        "geocode_status": "GPS",
        "access_code": "public"
    },
    {
        "id": 33695,
        "station_name": "Oakland International Airport - Daily Lot",
        "street_address": "1 Airport Dr",
        "city": "Oakland",
        "state": "CA",
        "zip": "94621",
        "latitude": 37.7136,
        "longitude": -122.2087,
        "owner_type_code": "LG",
        "ev_connector_types": [
            "J1772"
        ],
        "ev_pricing": "Free",
        "geocode_status": "GPS",
        "access_code": "public"
    },
    {
        "id": 35146,
        "station_name": "Fairfield Transportation Center",
        "street_address": "2000 Cadenasso Dr",
        "city": "Fairfield",
        "state": "CA",
        "zip": "94533",
        "latitude": 38.2482,
        "longitude": -122.0678,
        "owner_type_code": "LG",
        "ev_connector_types": [
            "J1772"
        ],
        "ev_pricing": "Free",
        "geocode_status": "GPS",
        "access_code": "public"
    },
    {
        "id": 35561,
        "station_name": "San Luis Obispo Promenade - Bed Bath & Beyond",
        "street_address": "319 Madonna Rd",
        "city": "San Luis Obispo",
        "state": "CA",
        "zip": "93401",
        "latitude": 35.25982,
        "longitude": -120.676,
        "owner_type_code": "P",
        "ev_connector_types": [
            "J1772"
        ],
        "ev_pricing": "Free",
        "geocode_status": "GPS",
        "access_code": "public"
    },
    {
        "id": 36610,
        "station_name": "Goleta Mechanics Bank",
        "street_address": "5956 Calle Real",
        "city": "Goleta",
        "state": "CA",
        "zip": "93117",
        "latitude": 34.44198,
        "longitude": -119.829553,
        "owner_type_code": "P",
        "ev_connector_types": [
            "J1772"
        ],
        "ev_pricing": "Free",
        "geocode_status": "200-9",
        "access_code": "public"
    },
    {
        "id": 38518,
        "station_name": "Beach & Hyde Garage",
        "street_address": "655 Beach St",
        "city": "San Francisco",
        "state": "CA",
        "zip": "94109",
        "latitude": 37.806798,
        "longitude": -122.419488,
        "owner_type_code": "P",
        "ev_connector_types": [
            "J1772"
        ],
        "ev_pricing": "Free",
        "geocode_status": "200-8",
        "access_code": "public"
    },
    {
        "id": 38521,
        "station_name": "City of Santa Monica - Civic Parking Garage",
        "street_address": "333 Civic Center Dr",
        "city": "Santa Monica",
        "state": "CA",
        "zip": "90401",
        "latitude": 34.010528,
        "longitude": -118.4898,
        "owner_type_code": "LG",
        "ev_connector_types": [
            "CHADEMO",
            "J1772"
        ],
        "ev_pricing": "Free",
        "geocode_status": "GPS",
        "access_code": "public"
    },
    {
        "id": 39314,
        "station_name": "Super 8 - Ukiah",
        "street_address": "693 S Orchard Ave",
        "city": "Ukiah",
        "state": "CA",
        "zip": "95482",
        "latitude": 39.1458,
        "longitude": -123.198497,
        "owner_type_code": "P",
        "ev_connector_types": [
            "J1772"
        ],
        "ev_pricing": "$10 per session",
        "geocode_status": "GPS",
        "access_code": "public"
    },
    {
        "id": 39870,
        "station_name": "Antioch Nissan",
        "street_address": "1831 Auto Center Dr",
        "city": "Antioch",
        "state": "CA",
        "zip": "94509",
        "latitude": 38.007799,
        "longitude": -121.832042,
        "owner_type_code": "P",
        "ev_connector_types": [
            "CHADEMO",
            "J1772",
            "J1772COMBO"
        ],
        "ev_pricing": "Free",
        "geocode_status": "200-9",
        "access_code": "public"
    },
    {
        "id": 39871,
        "station_name": "Nissan of Bakersfield",
        "street_address": "2800 Pacheco Rd",
        "city": "Bakersfield",
        "state": "CA",
        "zip": "93313",
        "latitude": 35.310723,
        "longitude": -119.035324,
        "owner_type_code": "P",
        "ev_connector_types": [
            "CHADEMO",
            "J1772",
            "J1772COMBO"
        ],
        "ev_pricing": "Free",
        "geocode_status": "200-9",
        "access_code": "public"
    },
    {
        "id": 39872,
        "station_name": "Buena Park Nissan",
        "street_address": "6501 Auto Center Dr",
        "city": "Buena Park",
        "state": "CA",
        "zip": "90621",
        "latitude": 33.865497,
        "longitude": -117.995215,
        "owner_type_code": "P",
        "ev_connector_types": [
            "CHADEMO",
            "J1772",
            "J1772COMBO"
        ],
        "ev_pricing": "Free",
        "geocode_status": "200-9",
        "access_code": "public"
    },
    {
        "id": 39873,
        "station_name": "Carson Nissan",
        "street_address": "1505 E 223rd St",
        "city": "Carson",
        "state": "CA",
        "zip": "90745",
        "latitude": 33.82498,
        "longitude": -118.24566,
        "owner_type_code": "P",
        "ev_connector_types": [
            "CHADEMO",
            "J1772",
            "J1772COMBO"
        ],
        "ev_pricing": "Free",
        "geocode_status": "200-8",
        "access_code": "public"
    },
    {
        "id": 39874,
        "station_name": "Palm Springs Nissan",
        "street_address": "68177 Kyle Rd",
        "city": "Cathedral City",
        "state": "CA",
        "zip": "92234",
        "latitude": 33.78414,
        "longitude": -116.471,
        "owner_type_code": "P",
        "ev_connector_types": [
            "CHADEMO",
            "J1772"
        ],
        "ev_pricing": "Free",
        "geocode_status": "GPS",
        "access_code": "public"
    },
    {
        "id": 39875,
        "station_name": "Cerritos Nissan",
        "street_address": "18707 Studebaker Rd",
        "city": "Cerritos",
        "state": "CA",
        "zip": "90703",
        "latitude": 33.861544,
        "longitude": -118.100471,
        "owner_type_code": "P",
        "ev_connector_types": [
            "CHADEMO",
            "J1772",
            "J1772COMBO"
        ],
        "ev_pricing": "Free",
        "geocode_status": "200-9",
        "access_code": "public"
    },
    {
        "id": 39876,
        "station_name": "Chico Nissan",
        "street_address": "575 Manzanita Ave",
        "city": "Chico",
        "state": "CA",
        "zip": "95926",
        "latitude": 39.75674,
        "longitude": -121.84372,
        "owner_type_code": "P",
        "ev_connector_types": [
            "CHADEMO",
            "J1772",
            "J1772COMBO"
        ],
        "ev_pricing": "Free",
        "geocode_status": "200-8",
        "access_code": "public"
    },
    {
        "id": 39877,
        "station_name": "Puente Hills Nissan",
        "street_address": "17320 E Gale Ave",
        "city": "City of Industry",
        "state": "CA",
        "zip": "91748",
        "latitude": 33.997621,
        "longitude": -117.928216,
        "owner_type_code": "P",
        "ev_connector_types": [
            "CHADEMO",
            "J1772",
            "J1772COMBO"
        ],
        "ev_pricing": "Free",
        "geocode_status": "GPS",
        "access_code": "public"
    },
    {
        "id": 39878,
        "station_name": "Lithia Nissan - Clovis",
        "street_address": "370 W Herndon Ave",
        "city": "Clovis",
        "state": "CA",
        "zip": "93612",
        "latitude": 36.83692,
        "longitude": -119.71718,
        "owner_type_code": "P",
        "ev_connector_types": [
            "J1772"
        ],
        "ev_pricing": "Free",
        "geocode_status": "200-8",
        "access_code": "public"
    },
    {
        "id": 39879,
        "station_name": "Nissan of Serramonte",
        "street_address": "1500 Collins Ave",
        "city": "Colma",
        "state": "CA",
        "zip": "94014",
        "latitude": 37.671267,
        "longitude": -122.463541,
        "owner_type_code": "P",
        "ev_connector_types": [
            "CHADEMO",
            "J1772"
        ],
        "ev_pricing": "Free",
        "geocode_status": "200-8",
        "access_code": "public"
    },
    {
        "id": 39880,
        "station_name": "Autocom Nissan - Concord",
        "street_address": "1290 Concord Ave",
        "city": "Concord",
        "state": "CA",
        "zip": "94520",
        "latitude": 37.980192,
        "longitude": -122.050128,
        "owner_type_code": "P",
        "ev_connector_types": [
            "J1772"
        ],
        "ev_pricing": "Free",
        "geocode_status": "200-8",
        "access_code": "public"
    },
    {
        "id": 39881,
        "station_name": "Larry H Miller Nissan",
        "street_address": "2575 Wardlow Rd",
        "city": "Corona",
        "state": "CA",
        "zip": "92882",
        "latitude": 33.88319,
        "longitude": -117.61565,
        "owner_type_code": "P",
        "ev_connector_types": [
            "CHADEMO",
            "J1772"
        ],
        "ev_pricing": "Free",
        "geocode_status": "200-8",
        "access_code": "public"
    },
    {
        "id": 39882,
        "station_name": "Orange Coast Nissan",
        "street_address": "2850 Harbor Blvd",
        "city": "Costa Mesa",
        "state": "CA",
        "zip": "92626",
        "latitude": 33.675397,
        "longitude": -117.918684,
        "owner_type_code": "P",
        "ev_connector_types": [
            "CHADEMO",
            "J1772",
            "J1772COMBO"
        ],
        "ev_pricing": "Free",
        "geocode_status": "200-9",
        "access_code": "public"
    },
    {
        "id": 39883,
        "station_name": "Hanlees Nissan",
        "street_address": "5009 Chiles Rd",
        "city": "Davis",
        "state": "CA",
        "zip": "95618",
        "latitude": 38.55252,
        "longitude": -121.69156,
        "owner_type_code": "P",
        "ev_connector_types": [
            "CHADEMO",
            "J1772"
        ],
        "ev_pricing": "Free",
        "geocode_status": "200-8",
        "access_code": "public"
    },
    {
        "id": 39884,
        "station_name": "Downey Nissan",
        "street_address": "7321 Firestone Blvd",
        "city": "Downey",
        "state": "CA",
        "zip": "90241",
        "latitude": 33.9473,
        "longitude": -118.151166,
        "owner_type_code": "P",
        "ev_connector_types": [
            "J1772",
            "J1772COMBO"
        ],
        "ev_pricing": "Free",
        "geocode_status": "200-8",
        "access_code": "public"
    },
    {
        "id": 39885,
        "station_name": "Nissan of Duarte",
        "street_address": "1434 Buena Vista St",
        "city": "Duarte",
        "state": "CA",
        "zip": "91010",
        "latitude": 34.136553,
        "longitude": -117.975944,
        "owner_type_code": "P",
        "ev_connector_types": [
            "J1772"
        ],
        "ev_pricing": "Free",
        "geocode_status": "GPS",
        "access_code": "public"
    },
    {
        "id": 39886,
        "station_name": "Mossy Nissan - El Cajon",
        "street_address": "1170 W Main St",
        "city": "El Cajon",
        "state": "CA",
        "zip": "92020",
        "latitude": 32.795896,
        "longitude": -116.976156,
        "owner_type_code": "P",
        "ev_connector_types": [
            "J1772"
        ],
        "ev_pricing": "Free",
        "geocode_status": "200-9",
        "access_code": "public"
    },
    {
        "id": 39887,
        "station_name": "Ross Nissan El Monte",
        "street_address": "3428 N Peck Rd",
        "city": "El Monte",
        "state": "CA",
        "zip": "91731",
        "latitude": 34.06964,
        "longitude": -118.02703,
        "owner_type_code": "P",
        "ev_connector_types": [
            "CHADEMO",
            "J1772",
            "J1772COMBO"
        ],
        "ev_pricing": "Free",
        "geocode_status": "200-8",
        "access_code": "public"
    },
    {
        "id": 39888,
        "station_name": "Nissan of Elk Grove",
        "street_address": "8590 Laguna Grove Dr",
        "city": "Elk Grove",
        "state": "CA",
        "zip": "95757",
        "latitude": 38.40209,
        "longitude": -121.38584,
        "owner_type_code": "P",
        "ev_connector_types": [
            "CHADEMO",
            "J1772"
        ],
        "ev_pricing": "Free",
        "geocode_status": "200-8",
        "access_code": "public"
    },
    {
        "id": 39889,
        "station_name": "Mossy Nissan - Escondido",
        "street_address": "1546 Auto Park Way",
        "city": "Escondido",
        "state": "CA",
        "zip": "92029",
        "latitude": 33.116492,
        "longitude": -117.106837,
        "owner_type_code": "P",
        "ev_connector_types": [
            "J1772"
        ],
        "ev_pricing": "Free",
        "geocode_status": "200-9",
        "access_code": "public"
    },
    {
        "id": 39890,
        "station_name": "McCrea Nissan",
        "street_address": "601 7th St",
        "city": "Eureka",
        "state": "CA",
        "zip": "95501",
        "latitude": 40.8007,
        "longitude": -124.16421,
        "owner_type_code": "P",
        "ev_connector_types": [
            "J1772"
        ],
        "ev_pricing": "Free",
        "geocode_status": "200-8",
        "access_code": "public"
    },
    {
        "id": 39891,
        "station_name": "Future Nissan of Folsom",
        "street_address": "12610 Auto Mall Cir",
        "city": "Folsom",
        "state": "CA",
        "zip": "95630",
        "latitude": 38.63424,
        "longitude": -121.20423,
        "owner_type_code": "P",
        "ev_connector_types": [
            "CHADEMO",
            "J1772",
            "J1772COMBO"
        ],
        "ev_pricing": "Free",
        "geocode_status": "200-8",
        "access_code": "public"
    },
    {
        "id": 39892,
        "station_name": "Fontana Nissan",
        "street_address": "16444 S Highland Ave",
        "city": "Fontana",
        "state": "CA",
        "zip": "92336",
        "latitude": 34.13534,
        "longitude": -117.44573,
        "owner_type_code": "P",
        "ev_connector_types": [
            "CHADEMO",
            "J1772",
            "J1772COMBO"
        ],
        "ev_pricing": "Free",
        "geocode_status": "200-8",
        "access_code": "public"
    },
    {
        "id": 39893,
        "station_name": "Premier Nissan of Fremont",
        "street_address": "5701 Cushing Pkwy",
        "city": "Fremont",
        "state": "CA",
        "zip": "94538",
        "latitude": 37.49864,
        "longitude": -121.9734,
        "owner_type_code": "P",
        "ev_connector_types": [
            "CHADEMO",
            "J1772"
        ],
        "ev_pricing": "Free",
        "geocode_status": "200-8",
        "access_code": "public"
    },
    {
        "id": 39894,
        "station_name": "Lithia Nissan - Fresno",
        "street_address": "5580 N Blackstone Ave",
        "city": "Fresno",
        "state": "CA",
        "zip": "93710",
        "latitude": 36.818622,
        "longitude": -119.789796,
        "owner_type_code": "P",
        "ev_connector_types": [
            "J1772"
        ],
        "ev_pricing": "Free",
        "geocode_status": "200-9",
        "access_code": "public"
    },
    {
        "id": 39895,
        "station_name": "Garden Grove Nissan",
        "street_address": "9222 Trask Ave",
        "city": "Garden Grove",
        "state": "CA",
        "zip": "92844",
        "latitude": 33.766376,
        "longitude": -117.968337,
        "owner_type_code": "P",
        "ev_connector_types": [
            "CHADEMO",
            "J1772",
            "J1772COMBO"
        ],
        "ev_pricing": "Free",
        "geocode_status": "200-9",
        "access_code": "public"
    },
    {
        "id": 39896,
        "station_name": "Gardena Nissan",
        "street_address": "1670 W Redondo Beach Blvd",
        "city": "Gardena",
        "state": "CA",
        "zip": "90247",
        "latitude": 33.889201,
        "longitude": -118.307028,
        "owner_type_code": "P",
        "ev_connector_types": [
            "J1772"
        ],
        "ev_pricing": "Free",
        "geocode_status": "200-8",
        "access_code": "public"
    },
    {
        "id": 39897,
        "station_name": "South County Nissan",
        "street_address": "400 Automall Dr",
        "city": "Gilroy",
        "state": "CA",
        "zip": "95020",
        "latitude": 36.996869,
        "longitude": -121.558573,
        "owner_type_code": "P",
        "ev_connector_types": [
            "J1772"
        ],
        "ev_pricing": "Free",
        "geocode_status": "200-9",
        "access_code": "public"
    },
    {
        "id": 39898,
        "station_name": "Glendale Nissan",
        "street_address": "727 S Brand Blvd",
        "city": "Glendale",
        "state": "CA",
        "zip": "91204",
        "latitude": 34.13714,
        "longitude": -118.25515,
        "owner_type_code": "P",
        "ev_connector_types": [
            "CHADEMO",
            "J1772",
            "J1772COMBO"
        ],
        "ev_pricing": "Free",
        "geocode_status": "200-8",
        "access_code": "public"
    },
    {
        "id": 39899,
        "station_name": "Santa Barbara Nissan",
        "street_address": "425 S Kellogg Ave",
        "city": "Goleta",
        "state": "CA",
        "zip": "93117",
        "latitude": 34.43427,
        "longitude": -119.820934,
        "owner_type_code": "P",
        "ev_connector_types": [
            "CHADEMO",
            "J1772"
        ],
        "ev_pricing": "Free",
        "geocode_status": "200-9",
        "access_code": "public"
    },
    {
        "id": 39901,
        "station_name": "Hayward Nissan",
        "street_address": "24644 Mission Blvd",
        "city": "Hayward",
        "state": "CA",
        "zip": "94544",
        "latitude": 37.662305,
        "longitude": -122.075178,
        "owner_type_code": "P",
        "ev_connector_types": [
            "CHADEMO",
            "J1772",
            "J1772COMBO"
        ],
        "ev_pricing": "Free",
        "geocode_status": "200-9",
        "access_code": "public"
    },
    {
        "id": 39902,
        "station_name": "Pedder Nissan",
        "street_address": "200 Carriage Cir",
        "city": "Hemet",
        "state": "CA",
        "zip": "92545",
        "latitude": 33.741163,
        "longitude": -117.031718,
        "owner_type_code": "P",
        "ev_connector_types": [
            "J1772"
        ],
        "ev_pricing": "Free",
        "geocode_status": "200-9",
        "access_code": "public"
    },
    {
        "id": 39903,
        "station_name": "Surf City Nissan",
        "street_address": "17331 Beach Blvd",
        "city": "Huntington Beach",
        "state": "CA",
        "zip": "92647",
        "latitude": 33.71069,
        "longitude": -117.989861,
        "owner_type_code": "P",
        "ev_connector_types": [
            "CHADEMO",
            "J1772",
            "J1772COMBO"
        ],
        "ev_pricing": "Free",
        "geocode_status": "200-9",
        "access_code": "public"
    },
    {
        "id": 39905,
        "station_name": "Torre Nissan",
        "street_address": "79125 Highway 111",
        "city": "La Quinta",
        "state": "CA",
        "zip": "92253",
        "latitude": 33.70693,
        "longitude": -116.28364,
        "owner_type_code": "P",
        "ev_connector_types": [
            "CHADEMO",
            "J1772"
        ],
        "ev_pricing": "Free",
        "geocode_status": "200-8",
        "access_code": "public"
    },
    {
        "id": 39906,
        "station_name": "Nissan of Downtown Los Angeles",
        "street_address": "635 W Washington Blvd",
        "city": "Los Angeles",
        "state": "CA",
        "zip": "90015",
        "latitude": 34.035168,
        "longitude": -118.273229,
        "owner_type_code": "P",
        "ev_connector_types": [
            "CHADEMO",
            "J1772"
        ],
        "ev_pricing": "Free",
        "geocode_status": "200-9",
        "access_code": "public"
    },
    {
        "id": 39907,
        "station_name": "Universal City Nissan",
        "street_address": "3550 Cahuenga Blvd W",
        "city": "Los Angeles",
        "state": "CA",
        "zip": "90068",
        "latitude": 34.133446,
        "longitude": -118.356601,
        "owner_type_code": "P",
        "ev_connector_types": [
            "CHADEMO",
            "J1772"
        ],
        "ev_pricing": "Free",
        "geocode_status": "200-9",
        "access_code": "public"
    },
    {
        "id": 39908,
        "station_name": "Razzari Nissan",
        "street_address": "1675 Auto Center Dr",
        "city": "Merced",
        "state": "CA",
        "zip": "95340",
        "latitude": 37.30584,
        "longitude": -120.50229,
        "owner_type_code": "P",
        "ev_connector_types": [
            "J1772"
        ],
        "ev_pricing": "Free",
        "geocode_status": "200-8",
        "access_code": "public"
    },
    {
        "id": 39910,
        "station_name": "Nissan of Mission Hills",
        "street_address": "11000 Sepulveda Blvd",
        "city": "Mission Hills",
        "state": "CA",
        "zip": "91345",
        "latitude": 34.269809,
        "longitude": -118.466606,
        "owner_type_code": "P",
        "ev_connector_types": [
            "J1772"
        ],
        "ev_pricing": "Free",
        "geocode_status": "200-9",
        "access_code": "public"
    },
    {
        "id": 39911,
        "station_name": "Central Valley Nissan",
        "street_address": "4530 McHenry Ave",
        "city": "Modesto",
        "state": "CA",
        "zip": "95356",
        "latitude": 37.705119,
        "longitude": -120.99471,
        "owner_type_code": "P",
        "ev_connector_types": [
            "J1772"
        ],
        "ev_pricing": "Free",
        "geocode_status": "200-8",
        "access_code": "public"
    },
    {
        "id": 39912,
        "station_name": "Metro Nissan of Montclair",
        "street_address": "9440 Autoplex Dr",
        "city": "Montclair",
        "state": "CA",
        "zip": "91763",
        "latitude": 34.082404,
        "longitude": -117.694876,
        "owner_type_code": "P",
        "ev_connector_types": [
            "CHADEMO",
            "J1772",
            "J1772COMBO"
        ],
        "ev_pricing": "Free",
        "geocode_status": "200-9",
        "access_code": "public"
    },
    {
        "id": 39913,
        "station_name": "Metro Nissan of Redlands",
        "street_address": "1665 Industrial Park Ave",
        "city": "Redlands",
        "state": "CA",
        "zip": "92374",
        "latitude": 34.06531,
        "longitude": -117.21201,
        "owner_type_code": "P",
        "ev_connector_types": [
            "CHADEMO",
            "J1772",
            "J1772COMBO"
        ],
        "ev_pricing": "Free",
        "geocode_status": "200-8",
        "access_code": "public"
    },
    {
        "id": 39914,
        "station_name": "Napa Nissan",
        "street_address": "510 Soscol Ave",
        "city": "Napa",
        "state": "CA",
        "zip": "94559",
        "latitude": 38.2927,
        "longitude": -122.27752,
        "owner_type_code": "P",
        "ev_connector_types": [
            "J1772"
        ],
        "ev_pricing": "Free",
        "geocode_status": "200-8",
        "access_code": "public"
    },
    {
        "id": 39915,
        "station_name": "Mossy Nissan",
        "street_address": "2700 National City Blvd",
        "city": "National City",
        "state": "CA",
        "zip": "91950",
        "latitude": 32.659001,
        "longitude": -117.100836,
        "owner_type_code": "P",
        "ev_connector_types": [
            "J1772"
        ],
        "ev_pricing": "Free",
        "geocode_status": "200-9",
        "access_code": "public"
    },
    {
        "id": 39916,
        "station_name": "Mossy Nissan - Oceanside",
        "street_address": "3535 College Blvd",
        "city": "Oceanside",
        "state": "CA",
        "zip": "92056",
        "latitude": 33.181953,
        "longitude": -117.298334,
        "owner_type_code": "P",
        "ev_connector_types": [
            "CHADEMO",
            "J1772"
        ],
        "ev_pricing": "Free",
        "geocode_status": "200-9",
        "access_code": "public"
    },
    {
        "id": 39917,
        "station_name": "Stadium Nissan",
        "street_address": "1140 W Katella Ave",
        "city": "Orange",
        "state": "CA",
        "zip": "92867",
        "latitude": 33.80819,
        "longitude": -117.86507,
        "owner_type_code": "P",
        "ev_connector_types": [
            "CHADEMO",
            "J1772"
        ],
        "ev_pricing": "Free",
        "geocode_status": "200-8",
        "access_code": "public"
    },
    {
        "id": 39918,
        "station_name": "Team Nissan",
        "street_address": "1801 Auto Center Dr",
        "city": "Oxnard",
        "state": "CA",
        "zip": "93036",
        "latitude": 34.22784,
        "longitude": -119.15031,
        "owner_type_code": "P",
        "ev_connector_types": [
            "CHADEMO",
            "J1772"
        ],
        "ev_pricing": "Free",
        "geocode_status": "200-8",
        "access_code": "public"
    },
    {
        "id": 39919,
        "station_name": "Antelope Valley Nissan",
        "street_address": "451 Auto Center Dr",
        "city": "Palmdale",
        "state": "CA",
        "zip": "93551",
        "latitude": 34.5914,
        "longitude": -118.1383,
        "owner_type_code": "P",
        "ev_connector_types": [
            "CHADEMO",
            "J1772"
        ],
        "ev_pricing": "Free",
        "geocode_status": "200-8",
        "access_code": "public"
    },
    {
        "id": 39920,
        "station_name": "North Bay Nissan",
        "street_address": "1250 Auto Center Dr",
        "city": "Petaluma",
        "state": "CA",
        "zip": "94952",
        "latitude": 38.267202,
        "longitude": -122.665068,
        "owner_type_code": "P",
        "ev_connector_types": [
            "CHADEMO",
            "J1772",
            "J1772COMBO"
        ],
        "ev_pricing": "Free",
        "geocode_status": "200-9",
        "access_code": "public"
    },
    {
        "id": 39921,
        "station_name": "Mossy Nissan - Poway",
        "street_address": "14100 Poway Rd",
        "city": "Poway",
        "state": "CA",
        "zip": "92064",
        "latitude": 32.95678,
        "longitude": -117.02581,
        "owner_type_code": "P",
        "ev_connector_types": [
            "CHADEMO",
            "J1772"
        ],
        "ev_pricing": "Free",
        "geocode_status": "200-8",
        "access_code": "public"
    },
    {
        "id": 39922,
        "station_name": "Crown Nissan",
        "street_address": "300 E Cypress Ave",
        "city": "Redding",
        "state": "CA",
        "zip": "96002",
        "latitude": 40.571632,
        "longitude": -122.36654,
        "owner_type_code": "P",
        "ev_connector_types": [
            "J1772"
        ],
        "ev_pricing": "Free",
        "geocode_status": "200-9",
        "access_code": "public"
    },
    {
        "id": 39923,
        "station_name": "Boardwalk Nissan",
        "street_address": "1 Bair Island Rd",
        "city": "Redwood City",
        "state": "CA",
        "zip": "94063",
        "latitude": 37.495963,
        "longitude": -122.227322,
        "owner_type_code": "P",
        "ev_connector_types": [
            "CHADEMO",
            "J1772"
        ],
        "ev_pricing": "Free",
        "geocode_status": "200-9",
        "access_code": "public"
    },
    {
        "id": 39925,
        "station_name": "Hanlees Hilltop Nissan",
        "street_address": "3277 Auto Plaza",
        "city": "Richmond",
        "state": "CA",
        "zip": "94806",
        "latitude": 37.98521,
        "longitude": -122.32138,
        "owner_type_code": "P",
        "ev_connector_types": [
            "CHADEMO",
            "J1772",
            "J1772COMBO"
        ],
        "ev_pricing": "Free",
        "geocode_status": "200-8",
        "access_code": "public"
    },
    {
        "id": 39926,
        "station_name": "Raceway Nissan",
        "street_address": "6030 Sycamore Canyon Blvd",
        "city": "Riverside",
        "state": "CA",
        "zip": "92507",
        "latitude": 33.941878,
        "longitude": -117.297603,
        "owner_type_code": "P",
        "ev_connector_types": [
            "J1772"
        ],
        "ev_pricing": "Free",
        "geocode_status": "200-9",
        "access_code": "public"
    },
    {
        "id": 39927,
        "station_name": "Riverside Nissan",
        "street_address": "8330 Indiana Ave",
        "city": "Riverside",
        "state": "CA",
        "zip": "92504",
        "latitude": 33.925469,
        "longitude": -117.419673,
        "owner_type_code": "P",
        "ev_connector_types": [
            "CHADEMO",
            "J1772",
            "J1772COMBO"
        ],
        "ev_pricing": "Free",
        "geocode_status": "GPS",
        "access_code": "public"
    },
    {
        "id": 39928,
        "station_name": "Future Nissan of Roseville",
        "street_address": "600 Automall Dr",
        "city": "Roseville",
        "state": "CA",
        "zip": "95661",
        "latitude": 38.752198,
        "longitude": -121.256452,
        "owner_type_code": "P",
        "ev_connector_types": [
            "CHADEMO",
            "J1772",
            "J1772COMBO"
        ],
        "ev_pricing": "Free",
        "geocode_status": "GPS",
        "access_code": "public"
    },
    {
        "id": 39929,
        "station_name": "Nissan of Sacramento",
        "street_address": "2820 Auburn Blvd",
        "city": "Sacramento",
        "state": "CA",
        "zip": "95821",
        "latitude": 38.63114,
        "longitude": -121.39648,
        "owner_type_code": "P",
        "ev_connector_types": [
            "CHADEMO",
            "J1772",
            "J1772COMBO"
        ],
        "ev_pricing": "Free",
        "geocode_status": "200-8",
        "access_code": "public"
    },
    {
        "id": 39930,
        "station_name": "MY Nissan",
        "street_address": "222 Auto Center Cir",
        "city": "Salinas",
        "state": "CA",
        "zip": "93907",
        "latitude": 36.720023,
        "longitude": -121.662519,
        "owner_type_code": "P",
        "ev_connector_types": [
            "CHADEMO",
            "J1772"
        ],
        "ev_pricing": "Free",
        "geocode_status": "GPS",
        "access_code": "public"
    },
    {
        "id": 39931,
        "station_name": "Larry H Miller Nissan of San Bernardino",
        "street_address": "735 Showcase Dr S",
        "city": "San Bernardino",
        "state": "CA",
        "zip": "92408",
        "latitude": 34.07141,
        "longitude": -117.29807,
        "owner_type_code": "P",
        "ev_connector_types": [
            "CHADEMO",
            "J1772"
        ],
        "ev_pricing": "Free",
        "geocode_status": "200-8",
        "access_code": "public"
    },
    {
        "id": 39932,
        "station_name": "Mossy Nissan - Kearny Mesa",
        "street_address": "8118 Clairemont Mesa Blvd",
        "city": "San Diego",
        "state": "CA",
        "zip": "92111",
        "latitude": 32.833179,
        "longitude": -117.147384,
        "owner_type_code": "P",
        "ev_connector_types": [
            "CHADEMO",
            "J1772"
        ],
        "ev_pricing": "Free",
        "geocode_status": "200-9",
        "access_code": "public"
    },
    {
        "id": 39933,
        "station_name": "Pacific Nissan",
        "street_address": "4433 Mission Bay Dr",
        "city": "San Diego",
        "state": "CA",
        "zip": "92109",
        "latitude": 32.802475,
        "longitude": -117.215269,
        "owner_type_code": "P",
        "ev_connector_types": [
            "CHADEMO",
            "J1772"
        ],
        "ev_pricing": "Free",
        "geocode_status": "200-9",
        "access_code": "public"
    },
    {
        "id": 39934,
        "station_name": "Nissan Sunnyvale",
        "street_address": "680 E El Camino Real",
        "city": "Sunnyvale",
        "state": "CA",
        "zip": "94087",
        "latitude": 37.359362,
        "longitude": -122.022783,
        "owner_type_code": "P",
        "ev_connector_types": [
            "J1772"
        ],
        "ev_pricing": "Free",
        "geocode_status": "200-9",
        "access_code": "public"
    },
    {
        "id": 39935,
        "station_name": "Premier Nissan",
        "street_address": "1120 W Capitol Expy",
        "city": "San Jose",
        "state": "CA",
        "zip": "95136",
        "latitude": 37.275144,
        "longitude": -121.877656,
        "owner_type_code": "P",
        "ev_connector_types": [
            "CHADEMO",
            "J1772",
            "J1772COMBO"
        ],
        "ev_pricing": "Free",
        "geocode_status": "GPS",
        "access_code": "public"
    },
    {
        "id": 39936,
        "station_name": "Nissan of San Juan Capistrano",
        "street_address": "33633 Camino Capistrano",
        "city": "San Juan Capistrano",
        "state": "CA",
        "zip": "92675",
        "latitude": 33.47462,
        "longitude": -117.67629,
        "owner_type_code": "P",
        "ev_connector_types": [
            "CHADEMO",
            "J1772"
        ],
        "ev_pricing": "Free",
        "geocode_status": "200-8",
        "access_code": "public"
    },
    {
        "id": 39937,
        "station_name": "San Leandro Nissan",
        "street_address": "1152 Marina Blvd",
        "city": "San Leandro",
        "state": "CA",
        "zip": "94577",
        "latitude": 37.71267,
        "longitude": -122.16245,
        "owner_type_code": "P",
        "ev_connector_types": [
            "CHADEMO",
            "J1772",
            "J1772COMBO"
        ],
        "ev_pricing": "Free",
        "geocode_status": "200-8",
        "access_code": "public"
    },
    {
        "id": 39938,
        "station_name": "Coast Nissan",
        "street_address": "12150 Los Osos Valley Rd",
        "city": "San Luis Obispo",
        "state": "CA",
        "zip": "93405",
        "latitude": 35.25062,
        "longitude": -120.68455,
        "owner_type_code": "P",
        "ev_connector_types": [
            "CHADEMO",
            "J1772"
        ],
        "ev_pricing": "Free",
        "geocode_status": "GPS",
        "access_code": "public"
    },
    {
        "id": 39939,
        "station_name": "Stevens Creek Nissan",
        "street_address": "4855 Stevens Creek Blvd",
        "city": "Santa Clara",
        "state": "CA",
        "zip": "95051",
        "latitude": 37.32349,
        "longitude": -121.98788,
        "owner_type_code": "P",
        "ev_connector_types": [
            "CHADEMO",
            "J1772",
            "J1772COMBO"
        ],
        "ev_pricing": "Free",
        "geocode_status": "200-8",
        "access_code": "public"
    },
    {
        "id": 39943,
        "station_name": "Jim Bone Nissan",
        "street_address": "1275 Santa Rosa Ave",
        "city": "Santa Rosa",
        "state": "CA",
        "zip": "95404",
        "latitude": 38.42558,
        "longitude": -122.71418,
        "owner_type_code": "P",
        "ev_connector_types": [
            "CHADEMO",
            "J1772",
            "J1772COMBO"
        ],
        "ev_pricing": "Free",
        "geocode_status": "200-8",
        "access_code": "public"
    },
    {
        "id": 39944,
        "station_name": "Cardinale Nissan",
        "street_address": "1661 Del Monte Blvd",
        "city": "Seaside",
        "state": "CA",
        "zip": "93955",
        "latitude": 36.611189,
        "longitude": -121.849899,
        "owner_type_code": "P",
        "ev_connector_types": [
            "CHADEMO",
            "J1772"
        ],
        "ev_pricing": "Free",
        "geocode_status": "GPS",
        "access_code": "public"
    },
    {
        "id": 39945,
        "station_name": "Nissan of Van Nuys",
        "street_address": "5425 Van Nuys Blvd",
        "city": "Sherman Oaks",
        "state": "CA",
        "zip": "91401",
        "latitude": 34.16924,
        "longitude": -118.44896,
        "owner_type_code": "P",
        "ev_connector_types": [
            "CHADEMO",
            "J1772",
            "J1772COMBO"
        ],
        "ev_pricing": "Free",
        "geocode_status": "200-8",
        "access_code": "public"
    },
    {
        "id": 39947,
        "station_name": "First Nissan",
        "street_address": "2325 1st St",
        "city": "Simi Valley",
        "state": "CA",
        "zip": "93065",
        "latitude": 34.27735,
        "longitude": -118.7796,
        "owner_type_code": "P",
        "ev_connector_types": [
            "CHADEMO",
            "J1772",
            "J1772COMBO"
        ],
        "ev_pricing": "Free",
        "geocode_status": "200-8",
        "access_code": "public"
    },
    {
        "id": 39948,
        "station_name": "Nissan of Stockton",
        "street_address": "3077 E Hammer Ln",
        "city": "Stockton",
        "state": "CA",
        "zip": "95212",
        "latitude": 38.02221,
        "longitude": -121.27534,
        "owner_type_code": "P",
        "ev_connector_types": [
            "CHADEMO",
            "J1772"
        ],
        "ev_pricing": "Free",
        "geocode_status": "200-8",
        "access_code": "public"
    },
    {
        "id": 39949,
        "station_name": "Temecula Nissan",
        "street_address": "41895 Motor Car Pkwy",
        "city": "Temecula",
        "state": "CA",
        "zip": "92591",
        "latitude": 33.516768,
        "longitude": -117.155039,
        "owner_type_code": "P",
        "ev_connector_types": [
            "CHADEMO",
            "J1772"
        ],
        "ev_pricing": "Free",
        "geocode_status": "200-9",
        "access_code": "public"
    },
    {
        "id": 39951,
        "station_name": "Tracy Nissan",
        "street_address": "3195 N Naglee Rd",
        "city": "Tracy",
        "state": "CA",
        "zip": "95304",
        "latitude": 37.75990555387505,
        "longitude": -121.4632051865082,
        "owner_type_code": "P",
        "ev_connector_types": [
            "J1772"
        ],
        "ev_pricing": "Free",
        "geocode_status": "GPS",
        "access_code": "public"
    },
    {
        "id": 39953,
        "station_name": "Nissan of Vacaville",
        "street_address": "671 Orange Dr",
        "city": "Vacaville",
        "state": "CA",
        "zip": "95687",
        "latitude": 38.381441,
        "longitude": -121.941218,
        "owner_type_code": "P",
        "ev_connector_types": [
            "J1772"
        ],
        "ev_pricing": "Free",
        "geocode_status": "200-9",
        "access_code": "public"
    },
    {
        "id": 39954,
        "station_name": "Champion Nissan",
        "street_address": "24111 Creekside Rd",
        "city": "Valencia",
        "state": "CA",
        "zip": "91355",
        "latitude": 34.420546,
        "longitude": -118.557774,
        "owner_type_code": "P",
        "ev_connector_types": [
            "J1772"
        ],
        "ev_pricing": "Free",
        "geocode_status": "200-9",
        "access_code": "public"
    },
    {
        "id": 39955,
        "station_name": "Vallejo Nissan",
        "street_address": "3287 Sonoma Blvd",
        "city": "Vallejo",
        "state": "CA",
        "zip": "94590",
        "latitude": 38.118088,
        "longitude": -122.255493,
        "owner_type_code": "P",
        "ev_connector_types": [
            "J1772"
        ],
        "ev_pricing": "Free",
        "geocode_status": "200-9",
        "access_code": "public"
    },
    {
        "id": 39956,
        "station_name": "Valley Hi Nissan",
        "street_address": "15722 Valley Park Ln",
        "city": "Victorville",
        "state": "CA",
        "zip": "92394",
        "latitude": 34.517883,
        "longitude": -117.3219,
        "owner_type_code": "P",
        "ev_connector_types": [
            "J1772"
        ],
        "ev_pricing": "Free",
        "geocode_status": "GPS",
        "access_code": "public"
    },
    {
        "id": 39957,
        "station_name": "Nissan of Visalia",
        "street_address": "830 S Ben Maddox Way",
        "city": "Visalia",
        "state": "CA",
        "zip": "93292",
        "latitude": 36.32325,
        "longitude": -119.27596,
        "owner_type_code": "P",
        "ev_connector_types": [
            "CHADEMO",
            "J1772",
            "J1772COMBO"
        ],
        "ev_pricing": "Free",
        "geocode_status": "200-8",
        "access_code": "public"
    },
    {
        "id": 39959,
        "station_name": "West Covina Nissan",
        "street_address": "205 N Citrus St",
        "city": "West Covina",
        "state": "CA",
        "zip": "91791",
        "latitude": 34.074227,
        "longitude": -117.890899,
        "owner_type_code": "P",
        "ev_connector_types": [
            "CHADEMO",
            "J1772"
        ],
        "ev_pricing": "Free",
        "geocode_status": "200-9",
        "access_code": "public"
    },
    {
        "id": 40185,
        "station_name": "International Brotherhood of Electrical Workers 569 - NECA Electrical Training Center",
        "street_address": "4675 Viewridge Ave",
        "city": "San Diego",
        "state": "CA",
        "zip": "92123",
        "latitude": 32.823912,
        "longitude": -117.12114,
        "owner_type_code": "P",
        "ev_connector_types": [
            "J1772"
        ],
        "ev_pricing": "Free",
        "geocode_status": "GPS",
        "access_code": "private"
    },
    {
        "id": 41526,
        "station_name": "Marsh Street Parking Structure",
        "street_address": "871 Marsh St",
        "city": "San Luis Obispo",
        "state": "CA",
        "zip": "93401",
        "latitude": 35.279705,
        "longitude": -120.6609,
        "owner_type_code": "LG",
        "ev_connector_types": [
            "J1772"
        ],
        "ev_pricing": "Free",
        "geocode_status": "GPS",
        "access_code": "public"
    },
    {
        "id": 43478,
        "station_name": "Malibu Country Mart",
        "street_address": "3835 Cross Creek Rd",
        "city": "Malibu",
        "state": "CA",
        "zip": "90265",
        "latitude": 34.035802,
        "longitude": -118.686393,
        "owner_type_code": "P",
        "ev_connector_types": [
            "J1772"
        ],
        "ev_pricing": "Free",
        "geocode_status": "200-9",
        "access_code": "public"
    },
    {
        "id": 46136,
        "station_name": "Amador Transit",
        "street_address": "115 Valley View Way",
        "city": "Sutter Creek",
        "state": "CA",
        "zip": "95685",
        "latitude": 38.379983,
        "longitude": -120.807672,
        "owner_type_code": "LG",
        "ev_connector_types": [
            "J1772"
        ],
        "ev_pricing": "Free",
        "geocode_status": "GPS",
        "access_code": "public"
    },
    {
        "id": 46473,
        "station_name": "Golden Gate Park - Music Concourse Garage",
        "street_address": "1 Music Concourse Dr",
        "city": "San Francisco",
        "state": "CA",
        "zip": "94118",
        "latitude": 37.768766,
        "longitude": -122.468341,
        "owner_type_code": "P",
        "ev_connector_types": [
            "J1772",
            "NEMA520"
        ],
        "ev_pricing": "Free; Pay to park",
        "geocode_status": "200-8",
        "access_code": "public"
    },
    {
        "id": 46482,
        "station_name": "Cupertino Electric",
        "street_address": "1132 N 7th St",
        "city": "San Jose",
        "state": "CA",
        "zip": "95112",
        "latitude": 37.36217972612609,
        "longitude": -121.8995386415253,
        "owner_type_code": "T",
        "ev_connector_types": [
            "J1772"
        ],
        "ev_pricing": "Free",
        "geocode_status": "GPS",
        "access_code": "public"
    },
    {
        "id": 46709,
        "station_name": "Nissan of Burlingame",
        "street_address": "101 California Dr",
        "city": "Burlingame",
        "state": "CA",
        "zip": "94010",
        "latitude": 37.57792,
        "longitude": -122.341931,
        "owner_type_code": "P",
        "ev_connector_types": [
            "J1772"
        ],
        "ev_pricing": "Free",
        "geocode_status": "200-9",
        "access_code": "public"
    },
    {
        "id": 46711,
        "station_name": "San Francisco Airport - Marriott Waterfront",
        "street_address": "1800 Old Bayshore Hwy",
        "city": "Burlingame",
        "state": "CA",
        "zip": "94010",
        "latitude": 37.6023496,
        "longitude": -122.3706759,
        "owner_type_code": "P",
        "ev_connector_types": [
            "J1772"
        ],
        "ev_pricing": "Free",
        "geocode_status": "GPS",
        "access_code": "public"
    },
    {
        "id": 46721,
        "station_name": "Dublin Nissan",
        "street_address": "6450 Dublin Ct",
        "city": "Dublin",
        "state": "CA",
        "zip": "94568",
        "latitude": 37.70271,
        "longitude": -121.91118,
        "owner_type_code": "P",
        "ev_connector_types": [
            "CHADEMO",
            "J1772"
        ],
        "ev_pricing": "Free",
        "geocode_status": "200-8",
        "access_code": "public"
    },
    {
        "id": 46723,
        "station_name": "Stone Brewing World Bistro & Gardens",
        "street_address": "1999 Citracado Pkwy",
        "city": "Escondido",
        "state": "CA",
        "zip": "92029",
        "latitude": 33.11587,
        "longitude": -117.11955,
        "owner_type_code": "P",
        "ev_connector_types": [
            "J1772"
        ],
        "ev_pricing": "Free",
        "geocode_status": "GPS",
        "access_code": "public"
    },
    {
        "id": 46724,
        "station_name": "Momentum Nissan",
        "street_address": "2545 Auto Mall Pkwy",
        "city": "Fairfield",
        "state": "CA",
        "zip": "94533",
        "latitude": 38.24415,
        "longitude": -122.0795,
        "owner_type_code": "P",
        "ev_connector_types": [
            "CHADEMO",
            "J1772",
            "J1772COMBO"
        ],
        "ev_pricing": "Free",
        "geocode_status": "200-8",
        "access_code": "public"
    },
    {
        "id": 46733,
        "station_name": "LA County Museum of Art",
        "street_address": "5905 Wilshire Blvd",
        "city": "Los Angeles",
        "state": "CA",
        "zip": "90036",
        "latitude": 34.063383,
        "longitude": -118.35808,
        "owner_type_code": "P",
        "ev_connector_types": [
            "J1772"
        ],
        "ev_pricing": "$0.45 per kWh from 4pm-9pm; $0.30 per kWh all other times",
        "geocode_status": "200-9",
        "access_code": "public"
    },
    {
        "id": 46743,
        "station_name": "Empire Nissan",
        "street_address": "1377 Kettering Loop",
        "city": "Ontario",
        "state": "CA",
        "zip": "91761",
        "latitude": 34.049006,
        "longitude": -117.547161,
        "owner_type_code": "P",
        "ev_connector_types": [
            "CHADEMO",
            "J1772",
            "J1772COMBO"
        ],
        "ev_pricing": "Free",
        "geocode_status": "200-9",
        "access_code": "public"
    },
    {
        "id": 46974,
        "station_name": "City of Rancho Cucamonga - Animal Care & Adoption Center",
        "street_address": "11780 Arrow Rt",
        "city": "Rancho Cucamonga",
        "state": "CA",
        "zip": "91730",
        "latitude": 34.100456,
        "longitude": -117.54918,
        "owner_type_code": "LG",
        "ev_connector_types": [
            "J1772"
        ],
        "ev_pricing": "$1.50 per hour",
        "geocode_status": "200-9",
        "access_code": "public"
    },
    {
        "id": 48141,
        "station_name": "Santa Maria Nissan",
        "street_address": "1001 E Battles Rd",
        "city": "Santa Maria",
        "state": "CA",
        "zip": "93454",
        "latitude": 34.93214,
        "longitude": -120.4207,
        "owner_type_code": "P",
        "ev_connector_types": [
            "J1772"
        ],
        "ev_pricing": "Free",
        "geocode_status": "200-8",
        "access_code": "public"
    },
    {
        "id": 48353,
        "station_name": "AAA - Auto Club of Southern California, Costa Mesa Branch",
        "street_address": "3350 Harbor Blvd",
        "city": "Costa Mesa",
        "state": "CA",
        "zip": "92626",
        "latitude": 33.69276,
        "longitude": -117.9183,
        "owner_type_code": "P",
        "ev_connector_types": [
            "J1772"
        ],
        "ev_pricing": "Free",
        "geocode_status": "GPS",
        "access_code": "public"
    },
    {
        "id": 48358,
        "station_name": "AAA - Auto Club of Southern California, Los Angeles Branch",
        "street_address": "2601 S Figueroa St",
        "city": "Los Angeles",
        "state": "CA",
        "zip": "90007",
        "latitude": 34.02828,
        "longitude": -118.2778,
        "owner_type_code": "P",
        "ev_connector_types": [
            "J1772"
        ],
        "ev_pricing": "Free",
        "geocode_status": "GPS",
        "access_code": "public"
    },
    {
        "id": 48362,
        "station_name": "Marriott - Renaissance Los Angeles Airport Hotel",
        "street_address": "9620 Airport Blvd",
        "city": "Los Angeles",
        "state": "CA",
        "zip": "90045",
        "latitude": 33.9492,
        "longitude": -118.385,
        "owner_type_code": "P",
        "ev_connector_types": [
            "J1772"
        ],
        "ev_pricing": "Free",
        "geocode_status": "GPS",
        "access_code": "public"
    },
    {
        "id": 48823,
        "station_name": "Brea Civic Center",
        "street_address": "1 Civic Center Cir",
        "city": "Brea",
        "state": "CA",
        "zip": "92821",
        "latitude": 33.91743,
        "longitude": -117.889,
        "owner_type_code": "LG",
        "ev_connector_types": [
            "J1772"
        ],
        "ev_pricing": "Free",
        "geocode_status": "GPS",
        "access_code": "public"
    },
    {
        "id": 48836,
        "station_name": "Marcum Copp Barbieri DDS",
        "street_address": "1129 Pacific St",
        "city": "San Luis Obispo",
        "state": "CA",
        "zip": "93401",
        "latitude": 35.28059,
        "longitude": -120.657,
        "owner_type_code": "P",
        "ev_connector_types": [
            "J1772"
        ],
        "ev_pricing": "$5 per hour for non-customers",
        "geocode_status": "GPS",
        "access_code": "public"
    },
    {
        "id": 48838,
        "station_name": "Bella Vista Road Park & Ride Lot",
        "street_address": "782 Davis Ct",
        "city": "Vacaville",
        "state": "CA",
        "zip": "95687",
        "latitude": 38.34962,
        "longitude": -121.987,
        "owner_type_code": "LG",
        "ev_connector_types": [
            "J1772"
        ],
        "ev_pricing": "Free",
        "geocode_status": "GPS",
        "access_code": "public"
    },
    {
        "id": 49119,
        "station_name": "San Joaquin Valley Air Pollution Control District - Central Regional Office",
        "street_address": "1990 E Gettysburg Ave",
        "city": "Fresno",
        "state": "CA",
        "zip": "93726",
        "latitude": 36.801411,
        "longitude": -119.7881,
        "owner_type_code": "P",
        "ev_connector_types": [
            "J1772"
        ],
        "ev_pricing": "Free",
        "geocode_status": "GPS",
        "access_code": "private"
    },
    {
        "id": 49122,
        "station_name": "Lodi City Hall",
        "street_address": "221 W Pine St",
        "city": "Lodi",
        "state": "CA",
        "zip": "95240",
        "latitude": 38.13437,
        "longitude": -121.2884,
        "owner_type_code": "LG",
        "ev_connector_types": [
            "J1772"
        ],
        "ev_pricing": "Free",
        "geocode_status": "GPS",
        "access_code": "public"
    },
    {
        "id": 49127,
        "station_name": "Sierra Chrysler Dodge Jeep Ram",
        "street_address": "1305 S Mountain Ave",
        "city": "Monrovia",
        "state": "CA",
        "zip": "91016",
        "latitude": 34.13867,
        "longitude": -117.9869,
        "owner_type_code": "P",
        "ev_connector_types": [
            "J1772"
        ],
        "ev_pricing": "Free",
        "geocode_status": "GPS",
        "access_code": "public"
    },
    {
        "id": 49130,
        "station_name": "Rancho Sierra Vista - Public Parking Lot",
        "street_address": "4121 Potrero Rd",
        "city": "Newbury Park",
        "state": "CA",
        "zip": "91320",
        "latitude": 34.152947,
        "longitude": -118.965356,
        "owner_type_code": "FG",
        "ev_connector_types": [
            "J1772"
        ],
        "ev_pricing": "Free",
        "geocode_status": "GPS",
        "access_code": "public"
    },
    {
        "id": 49131,
        "station_name": "Ontario International Airport",
        "street_address": "Terminal Way",
        "city": "Ontario",
        "state": "CA",
        "zip": "91761",
        "latitude": 34.0616,
        "longitude": -117.5935,
        "owner_type_code": "LG",
        "ev_connector_types": [
            "J1772"
        ],
        "ev_pricing": "Free; $21 per day parking fee",
        "geocode_status": "GPS",
        "access_code": "public"
    },
    {
        "id": 49133,
        "station_name": "John T Lyle Center for Regenerative Studies",
        "street_address": "4105 University S Dr",
        "city": "Walnut",
        "state": "CA",
        "zip": "91768",
        "latitude": 34.049341,
        "longitude": -117.82341,
        "owner_type_code": "P",
        "ev_connector_types": [
            "J1772"
        ],
        "ev_pricing": "Free",
        "geocode_status": "GPS",
        "access_code": "public"
    },
    {
        "id": 49134,
        "station_name": "University of California - Davis Medical Center",
        "street_address": "4241 X St",
        "city": "Sacramento",
        "state": "CA",
        "zip": "95817",
        "latitude": 38.553545,
        "longitude": -121.4561,
        "owner_type_code": "P",
        "ev_connector_types": [
            "J1772"
        ],
        "ev_pricing": "$2 per hour parking fee",
        "geocode_status": "GPS",
        "access_code": "public"
    },
    {
        "id": 49149,
        "station_name": "Mojave Desert Air Quality Management District",
        "street_address": "14306 Park Ave",
        "city": "Victorville",
        "state": "CA",
        "zip": "92392",
        "latitude": 34.511036,
        "longitude": -117.325348,
        "owner_type_code": "P",
        "ev_connector_types": [
            "J1772"
        ],
        "ev_pricing": "Free",
        "geocode_status": "GPS",
        "access_code": "public"
    },
    {
        "id": 49255,
        "station_name": "Winner Chevrolet",
        "street_address": "1624 S Canyon Way",
        "city": "Colfax",
        "state": "CA",
        "zip": "95713",
        "latitude": 39.084259,
        "longitude": -120.956,
        "owner_type_code": "P",
        "ev_connector_types": [
            "J1772",
            "J1772COMBO"
        ],
        "ev_pricing": "Free",
        "geocode_status": "GPS",
        "access_code": "public"
    },
    {
        "id": 49329,
        "station_name": "City of Davis - City Hall",
        "street_address": "23 Russell Blvd",
        "city": "Davis",
        "state": "CA",
        "zip": "95616",
        "latitude": 38.546699,
        "longitude": -121.7461,
        "owner_type_code": "LG",
        "ev_connector_types": [
            "J1772"
        ],
        "ev_pricing": "Free",
        "geocode_status": "GPS",
        "access_code": "public"
    },
    {
        "id": 49330,
        "station_name": "Yolo-Solano Air Quality Management District",
        "street_address": "1947 Galileo Ct",
        "city": "Davis",
        "state": "CA",
        "zip": "95618",
        "latitude": 38.54246,
        "longitude": -121.7279,
        "owner_type_code": "LG",
        "ev_connector_types": [
            "J1772"
        ],
        "ev_pricing": "Free",
        "geocode_status": "GPS",
        "access_code": "public"
    },
    {
        "id": 49333,
        "station_name": "Malibu Civic Center",
        "street_address": "23525 Civic Center Way",
        "city": "Malibu",
        "state": "CA",
        "zip": "90265",
        "latitude": 34.037227,
        "longitude": -118.689023,
        "owner_type_code": "LG",
        "ev_connector_types": [
            "J1772"
        ],
        "ev_pricing": "$0.25 per kWh; parking fee",
        "geocode_status": "200-9",
        "access_code": "public"
    },
    {
        "id": 49342,
        "station_name": "Homewood Suites - San Jose Airport",
        "street_address": "10 W Trimble Rd",
        "city": "San Jose",
        "state": "CA",
        "zip": "95131",
        "latitude": 37.38514,
        "longitude": -121.9288,
        "owner_type_code": "P",
        "ev_connector_types": [
            "J1772"
        ],
        "ev_pricing": "Free",
        "geocode_status": "GPS",
        "access_code": "public"
    },
    {
        "id": 49350,
        "station_name": "Vallejo City Hall",
        "street_address": "555 Santa Clara St",
        "city": "Vallejo",
        "state": "CA",
        "zip": "94590",
        "latitude": 38.1022,
        "longitude": -122.261,
        "owner_type_code": "LG",
        "ev_connector_types": [
            "J1772"
        ],
        "ev_pricing": "Free",
        "geocode_status": "GPS",
        "access_code": "public"
    },
    {
        "id": 50011,
        "station_name": "InterContinental Hotel - San Francisco",
        "street_address": "888 Howard St",
        "city": "San Francisco",
        "state": "CA",
        "zip": "94103",
        "latitude": 37.782079,
        "longitude": -122.404764,
        "owner_type_code": "P",
        "ev_connector_types": [
            "J1772"
        ],
        "ev_pricing": "Free",
        "geocode_status": "200-9",
        "access_code": "public"
    },
    {
        "id": 50153,
        "station_name": "City of Pasadena - Los Robles Garage",
        "street_address": "400 E Green St",
        "city": "Pasadena",
        "state": "CA",
        "zip": "91101",
        "latitude": 34.144224,
        "longitude": -118.142129,
        "owner_type_code": "LG",
        "ev_connector_types": [
            "J1772"
        ],
        "ev_pricing": "Free; parking fee",
        "geocode_status": "200-9",
        "access_code": "public"
    },
    {
        "id": 50157,
        "station_name": "Best Western - Pepper Tree Inn",
        "street_address": "3850 State St",
        "city": "Santa Barbara",
        "state": "CA",
        "zip": "93105",
        "latitude": 34.441146,
        "longitude": -119.748892,
        "owner_type_code": "P",
        "ev_connector_types": [
            "J1772"
        ],
        "ev_pricing": "Free",
        "geocode_status": "200-9",
        "access_code": "public"
    },
    {
        "id": 50424,
        "station_name": "Los Angeles Metro - Chatsworth Metrolink Station",
        "street_address": "10040 Old Depot Plaza Rd",
        "city": "Chatsworth",
        "state": "CA",
        "zip": "91311",
        "latitude": 34.253049,
        "longitude": -118.598675,
        "owner_type_code": "P",
        "ev_connector_types": [
            "J1772"
        ],
        "ev_pricing": "$1 per hour; Maximum payment of $3",
        "geocode_status": "200-8",
        "access_code": "public"
    },
    {
        "id": 50736,
        "station_name": "Oakland International Airport - Economy Lot",
        "street_address": "1 Airport Dr",
        "city": "Oakland",
        "state": "CA",
        "zip": "94621",
        "latitude": 37.7153,
        "longitude": -122.2145,
        "owner_type_code": "LG",
        "ev_connector_types": [
            "J1772"
        ],
        "ev_pricing": "Free",
        "geocode_status": "GPS",
        "access_code": "public"
    },
    {
        "id": 50742,
        "station_name": "Monterey Zoo",
        "street_address": "400 River Rd",
        "city": "Salinas",
        "state": "CA",
        "zip": "93908",
        "latitude": 36.594595,
        "longitude": -121.624692,
        "owner_type_code": "P",
        "ev_connector_types": [
            "J1772"
        ],
        "ev_pricing": "Free",
        "geocode_status": "200-9",
        "access_code": "public"
    },
    {
        "id": 50799,
        "station_name": "City of Temecula - Old Town Parking Garage",
        "street_address": "28690 Mercedes St",
        "city": "Temecula",
        "state": "CA",
        "zip": "92590",
        "latitude": 33.49353,
        "longitude": -117.146,
        "owner_type_code": "LG",
        "ev_connector_types": [
            "J1772"
        ],
        "ev_pricing": "Unknown",
        "geocode_status": "GPS",
        "access_code": "public"
    },
    {
        "id": 51204,
        "station_name": "BoardTronics",
        "street_address": "1364 Blue Oaks Blvd",
        "city": "Roseville",
        "state": "CA",
        "zip": "95678",
        "latitude": 38.797142,
        "longitude": -121.31234,
        "owner_type_code": "P",
        "ev_connector_types": [
            "J1772"
        ],
        "ev_pricing": "Free",
        "geocode_status": "200-9",
        "access_code": "public"
    },
    {
        "id": 51210,
        "station_name": "Sheldon Town Center",
        "street_address": "8973 Grant Line Rd",
        "city": "Elk Grove",
        "state": "CA",
        "zip": "95624",
        "latitude": 38.431454,
        "longitude": -121.299343,
        "owner_type_code": "P",
        "ev_connector_types": [
            "J1772"
        ],
        "ev_pricing": "Free",
        "geocode_status": "200-9",
        "access_code": "public"
    },
    {
        "id": 51211,
        "station_name": "Folsom Historic District Parking Structure",
        "street_address": "905 Leidesdorff St",
        "city": "Folsom",
        "state": "CA",
        "zip": "95630",
        "latitude": 38.676631,
        "longitude": -121.179577,
        "owner_type_code": "LG",
        "ev_connector_types": [
            "J1772"
        ],
        "ev_pricing": "Free",
        "geocode_status": "200-9",
        "access_code": "public"
    },
    {
        "id": 51236,
        "station_name": "Wells Fargo Center",
        "street_address": "400 Capital Mall",
        "city": "Sacramento",
        "state": "CA",
        "zip": "95814",
        "latitude": 38.578648,
        "longitude": -121.50238,
        "owner_type_code": "P",
        "ev_connector_types": [
            "J1772"
        ],
        "ev_pricing": "Free",
        "geocode_status": "200-9",
        "access_code": "public"
    },
    {
        "id": 51516,
        "station_name": "City of Palm Desert - City Hall",
        "street_address": "73510 Fred Waring Dr",
        "city": "Palm Desert",
        "state": "CA",
        "zip": "92260",
        "latitude": 33.730812,
        "longitude": -116.38184,
        "owner_type_code": "LG",
        "ev_connector_types": [
            "J1772"
        ],
        "ev_pricing": "Free",
        "geocode_status": "GPS",
        "access_code": "public"
    },
    {
        "id": 51919,
        "station_name": "City of Lodi - Finance Department",
        "street_address": "310 W Elm St",
        "city": "Lodi",
        "state": "CA",
        "zip": "95240",
        "latitude": 38.135267,
        "longitude": -121.276865,
        "owner_type_code": "LG",
        "ev_connector_types": [
            "J1772"
        ],
        "ev_pricing": "Free",
        "geocode_status": "200-9",
        "access_code": "public"
    },
    {
        "id": 51920,
        "station_name": "Hutchins Street Square Community Center",
        "street_address": "125 S Hutchins St",
        "city": "Lodi",
        "state": "CA",
        "zip": "95240",
        "latitude": 38.132382,
        "longitude": -121.280312,
        "owner_type_code": "LG",
        "ev_connector_types": [
            "J1772"
        ],
        "ev_pricing": "Free",
        "geocode_status": "200-9",
        "access_code": "public"
    },
    {
        "id": 51922,
        "station_name": "Lodi Downtown Parking Structure",
        "street_address": "50 N Sacramento St",
        "city": "Lodi",
        "state": "CA",
        "zip": "95240",
        "latitude": 38.134789,
        "longitude": -121.27182,
        "owner_type_code": "LG",
        "ev_connector_types": [
            "J1772"
        ],
        "ev_pricing": "Free",
        "geocode_status": "200-9",
        "access_code": "public"
    },
    {
        "id": 51923,
        "station_name": "Lodi Public Library",
        "street_address": "201 W Locust St",
        "city": "Lodi",
        "state": "CA",
        "zip": "95240",
        "latitude": 38.137038,
        "longitude": -121.275506,
        "owner_type_code": "LG",
        "ev_connector_types": [
            "J1772"
        ],
        "ev_pricing": "Free",
        "geocode_status": "200-9",
        "access_code": "public"
    },
    {
        "id": 51933,
        "station_name": "ProjectGreenHome.org",
        "street_address": "314 Stanford Ave",
        "city": "Palo Alto",
        "state": "CA",
        "zip": "94306",
        "latitude": 37.430039,
        "longitude": -122.147944,
        "owner_type_code": "P",
        "ev_connector_types": [
            "J1772"
        ],
        "ev_pricing": "Free",
        "geocode_status": "200-9",
        "access_code": "public"
    },
    {
        "id": 51934,
        "station_name": "Unitarian Universalist Church",
        "street_address": "505 E Charleston Rd",
        "city": "Palo Alto",
        "state": "CA",
        "zip": "94306",
        "latitude": 37.419672,
        "longitude": -122.112723,
        "owner_type_code": "P",
        "ev_connector_types": [
            "J1772"
        ],
        "ev_pricing": "Free",
        "geocode_status": "200-9",
        "access_code": "public"
    },